{
"type": "FeatureCollection",
"name": "combined",
"features": [
{ "type": "Feature", "properties": { "region": "NW", "name": "Stark" }, "geometry": null },
{ "type": "Feature", "properties": { "region": "NW", "name": "Henry" }, "geometry": null },
{ "type": "Feature", "properties": { "region": "NW", "name": "Stephenson" }, "geometry": null },
{ "type": "Feature", "properties": { "region": "NW", "name": "LaSalle" }, "geometry": null },
{ "type": "Feature", "properties": { "region": "NW", "name": "Putnam" }, "geometry": null },
{ "type": "Feature", "properties": { "region": "NW", "name": "Whiteside" }, "geometry": null },
{ "type": "Feature", "properties": { "region": "NW", "name": "Lee" }, "geometry": null },
{ "type": "Feature", "properties": { "region": "NW", "name": "DeKalb" }, "geometry": null },
{ "type": "Feature", "properties": { "region": "NW", "name": "Jo Daviess" }, "geometry": null },
{ "type": "Feature", "properties": { "region": "NW", "name": "Boone" }, "geometry": null },
{ "type": "Feature", "properties": { "region": "NW", "name": "Carroll" }, "geometry": null },
{ "type": "Feature", "properties": { "region": "NW", "name": "Ogle" }, "geometry": null },
{ "type": "Feature", "properties": { "region": "NW", "name": "Winnebago" }, "geometry": null },
{ "type": "Feature", "properties": { "region": "NW", "name": "Bureau" }, "geometry": null },
{ "type": "Feature", "properties": { "region": "EC", "name": "Kankakee" }, "geometry": null },
{ "type": "Feature", "properties": { "region": "EC", "name": "Iroquois" }, "geometry": null },
{ "type": "Feature", "properties": { "region": "EC", "name": "Coles" }, "geometry": null },
{ "type": "Feature", "properties": { "region": "EC", "name": "Clark" }, "geometry": null },
{ "type": "Feature", "properties": { "region": "EC", "name": "Shelby" }, "geometry": null },
{ "type": "Feature", "properties": { "region": "EC", "name": "Vermilion" }, "geometry": null },
{ "type": "Feature", "properties": { "region": "EC", "name": "Livingston" }, "geometry": null },
{ "type": "Feature", "properties": { "region": "EC", "name": "Douglas" }, "geometry": null },
{ "type": "Feature", "properties": { "region": "EC", "name": "Edgar" }, "geometry": null },
{ "type": "Feature", "properties": { "region": "EC", "name": "Ford" }, "geometry": null },
{ "type": "Feature", "properties": { "region": "EC", "name": "Cumberland" }, "geometry": null },
{ "type": "Feature", "properties": { "region": "EC", "name": "Champaign" }, "geometry": null },
{ "type": "Feature", "properties": { "region": "SC", "name": "Bond" }, "geometry": null },
{ "type": "Feature", "properties": { "region": "SC", "name": "Franklin" }, "geometry": null },
{ "type": "Feature", "properties": { "region": "SC", "name": "Randolph" }, "geometry": null },
{ "type": "Feature", "properties": { "region": "SC", "name": "Jackson" }, "geometry": null },
{ "type": "Feature", "properties": { "region": "SC", "name": "Washington" }, "geometry": null },
{ "type": "Feature", "properties": { "region": "SC", "name": "Madison" }, "geometry": null },
{ "type": "Feature", "properties": { "region": "SC", "name": "Perry" }, "geometry": null },
{ "type": "Feature", "properties": { "region": "SC", "name": "Marion" }, "geometry": null },
{ "type": "Feature", "properties": { "region": "SC", "name": "Jersey" }, "geometry": null },
{ "type": "Feature", "properties": { "region": "SC", "name": "Monroe" }, "geometry": null },
{ "type": "Feature", "properties": { "region": "SC", "name": "St. Clair" }, "geometry": null },
{ "type": "Feature", "properties": { "region": "SC", "name": "Effingham" }, "geometry": null },
{ "type": "Feature", "properties": { "region": "SC", "name": "Clinton" }, "geometry": null },
{ "type": "Feature", "properties": { "region": "SC", "name": "Fayette" }, "geometry": null },
{ "type": "Feature", "properties": { "region": "SC", "name": "Jefferson" }, "geometry": null },
{ "type": "Feature", "properties": { "region": "SC", "name": "Union" }, "geometry": null },
{ "type": "Feature", "properties": { "region": "SE", "name": "Pulaski" }, "geometry": null },
{ "type": "Feature", "properties": { "region": "SE", "name": "Hamilton" }, "geometry": null },
{ "type": "Feature", "properties": { "region": "SE", "name": "Massac" }, "geometry": null },
{ "type": "Feature", "properties": { "region": "SE", "name": "Wabash" }, "geometry": null },
{ "type": "Feature", "properties": { "region": "SE", "name": "Jasper" }, "geometry": null },
{ "type": "Feature", "properties": { "region": "SE", "name": "Hardin" }, "geometry": null },
{ "type": "Feature", "properties": { "region": "SE", "name": "White" }, "geometry": null },
{ "type": "Feature", "properties": { "region": "SE", "name": "Wayne" }, "geometry": null },
{ "type": "Feature", "properties": { "region": "SE", "name": "Saline" }, "geometry": null },
{ "type": "Feature", "properties": { "region": "SE", "name": "Lawrence" }, "geometry": null },
{ "type": "Feature", "properties": { "region": "SE", "name": "Gallatin" }, "geometry": null },
{ "type": "Feature", "properties": { "region": "SE", "name": "Williamson" }, "geometry": null },
{ "type": "Feature", "properties": { "region": "SE", "name": "Alexander" }, "geometry": null },
{ "type": "Feature", "properties": { "region": "SE", "name": "Johnson" }, "geometry": null },
{ "type": "Feature", "properties": { "region": "SE", "name": "Clay" }, "geometry": null },
{ "type": "Feature", "properties": { "region": "SE", "name": "Edwards" }, "geometry": null },
{ "type": "Feature", "properties": { "region": "SE", "name": "Pope" }, "geometry": null },
{ "type": "Feature", "properties": { "region": "SE", "name": "Richland" }, "geometry": null },
{ "type": "Feature", "properties": { "region": "SE", "name": "Crawford" }, "geometry": null },
{ "type": "Feature", "properties": { "region": "WC", "name": "Pike" }, "geometry": null },
{ "type": "Feature", "properties": { "region": "WC", "name": "Adams" }, "geometry": null },
{ "type": "Feature", "properties": { "region": "WC", "name": "Schuyler" }, "geometry": null },
{ "type": "Feature", "properties": { "region": "WC", "name": "Scott" }, "geometry": null },
{ "type": "Feature", "properties": { "region": "WC", "name": "Rock Island" }, "geometry": null },
{ "type": "Feature", "properties": { "region": "WC", "name": "Henderson" }, "geometry": null },
{ "type": "Feature", "properties": { "region": "WC", "name": "Hancock" }, "geometry": null },
{ "type": "Feature", "properties": { "region": "WC", "name": "McDonough" }, "geometry": null },
{ "type": "Feature", "properties": { "region": "WC", "name": "Mercer" }, "geometry": null },
{ "type": "Feature", "properties": { "region": "WC", "name": "Warren" }, "geometry": null },
{ "type": "Feature", "properties": { "region": "WC", "name": "Mason" }, "geometry": null },
{ "type": "Feature", "properties": { "region": "WC", "name": "Calhoun" }, "geometry": null },
{ "type": "Feature", "properties": { "region": "WC", "name": "Knox" }, "geometry": null },
{ "type": "Feature", "properties": { "region": "WC", "name": "Fulton" }, "geometry": null },
{ "type": "Feature", "properties": { "region": "WC", "name": "Brown" }, "geometry": null },
{ "type": "Feature", "properties": { "region": "WC", "name": "Cass" }, "geometry": null },
{ "type": "Feature", "properties": { "region": "WC", "name": "Greene" }, "geometry": null },
{ "type": "Feature", "properties": { "region": "NE", "name": "McHenry" }, "geometry": null },
{ "type": "Feature", "properties": { "region": "NE", "name": "Kendall" }, "geometry": null },
{ "type": "Feature", "properties": { "region": "NE", "name": "Lake" }, "geometry": null },
{ "type": "Feature", "properties": { "region": "NE", "name": "Grundy" }, "geometry": null },
{ "type": "Feature", "properties": { "region": "NE", "name": "Will" }, "geometry": null },
{ "type": "Feature", "properties": { "region": "NE", "name": "Cook - Suburban" }, "geometry": null },
{ "type": "Feature", "properties": { "region": "NE", "name": "Kane" }, "geometry": null },
{ "type": "Feature", "properties": { "region": "NE", "name": "DuPage" }, "geometry": null },
{ "type": "Feature", "properties": { "region": "CH", "name": "Cook - Chicago" }, "geometry": null },
{ "type": "Feature", "properties": { "region": "CS", "name": "Cook - Chicago South" }, "geometry": null }
]
}
